{
"type": "FeatureCollection",
"name": "Local_air_quality_monitoring_stations",
"crs": { "type": "name", "properties": { "name": "urn:ogc:def:crs:OGC:1.3:CRS84" } },
"features": [
{ "type": "Feature", "properties": { "OBJECTID": 1, "SITE_NAME": "Gillygate", "INLET__M_": "2.5 approx" }, "geometry": { "type": "Point", "coordinates": [ -1.084696175520401, 53.963701693330513 ] } },
{ "type": "Feature", "properties": { "OBJECTID": 2, "SITE_NAME": "Holgate", "INLET__M_": "1.65 approx" }, "geometry": { "type": "Point", "coordinates": [ -1.094604922574257, 53.954239982055221 ] } },
{ "type": "Feature", "properties": { "OBJECTID": 3, "SITE_NAME": "Fishergate", "INLET__M_": "2.66" }, "geometry": { "type": "Point", "coordinates": [ -1.075855048006197, 53.951907660238263 ] } },
{ "type": "Feature", "properties": { "OBJECTID": 4, "SITE_NAME": "Nunnery Lane", "INLET__M_": "1.65 approx" }, "geometry": { "type": "Point", "coordinates": [ -1.08614317057412, 53.953426443972972 ] } },
{ "type": "Feature", "properties": { "OBJECTID": 5, "SITE_NAME": "Bootham Hospital", "INLET__M_": "3.04" }, "geometry": { "type": "Point", "coordinates": [ -1.086535205035688, 53.96761729332259 ] } },
{ "type": "Feature", "properties": { "OBJECTID": 6, "SITE_NAME": "Lawrence Street", "INLET__M_": "1.65 approx" }, "geometry": { "type": "Point", "coordinates": [ -1.068066346384932, 53.954439288010121 ] } },
{ "type": "Feature", "properties": { "OBJECTID": 7, "SITE_NAME": "Heworth Green", "INLET__M_": "1.53" }, "geometry": { "type": "Point", "coordinates": [ -1.069743101807715, 53.965917145486927 ] } },
{ "type": "Feature", "properties": { "OBJECTID": 8, "SITE_NAME": "Plantation Drive", "INLET__M_": " " }, "geometry": { "type": "Point", "coordinates": [ -1.126056907226971, 53.966450687685587 ] } },
{ "type": "Feature", "properties": { "OBJECTID": 9, "SITE_NAME": "Fulford Road", "INLET__M_": " " }, "geometry": { "type": "Point", "coordinates": [ -1.073324888753352, 53.937804982503415 ] } }
]
}
